{ "type": "Feature", "properties": { "OBJECTID": 1, "NEIGHBORHOOD": "South", "NAME": "18th and Christian*", "ADDRESS": "18th and Christian St", "ADDRESS_NOTES": "at the YMCA", "ZIP": 19146, "DAY": "Thurs", "TIME": "3-7pm", "MONTHS": "June - November", "ACCEPT_SNAP_ACCESS": "Y", "ACCEPT_FMNP": "Y", "ACCEPT_PHILLY_FOOD_BUCKS": "Y", "MAJOR_BUS_SUBWAY_ROUTES": "2, 17" }, "geometry": { "type": "Point", "coordinates": [ -75.172699479042535, 39.940833854085973 ] } },
{ "type": "Feature", "properties": { "OBJECTID": 2, "NEIGHBORHOOD": "South", "NAME": "22nd & Tasker*", "ADDRESS": "22nd and Tasker St", "ADDRESS_NOTES": null, "ZIP": 19145, "DAY": "Tues", "TIME": "2-6pm", "MONTHS": "End June\/Early July – November", "ACCEPT_SNAP_ACCESS": "Y", "ACCEPT_FMNP": "Y", "ACCEPT_PHILLY_FOOD_BUCKS": "Y", "MAJOR_BUS_SUBWAY_ROUTES": "7, 29" }, "geometry": { "type": "Point", "coordinates": [ -75.181422070992681, 39.932170939210344 ] } },
{ "type": "Feature", "properties": { "OBJECTID": 3, "NEIGHBORHOOD": "North", "NAME": "26th and Allegheny*", "ADDRESS": "26th St and Allegheny Ave", "ADDRESS_NOTES": null, "ZIP": 19129, "DAY": "Wed", "TIME": "1-5pm", "MONTHS": "July 8th - November", "ACCEPT_SNAP_ACCESS": "Y", "ACCEPT_FMNP": "Y", "ACCEPT_PHILLY_FOOD_BUCKS": "Y", "MAJOR_BUS_SUBWAY_ROUTES": "48, 60" }, "geometry": { "type": "Point", "coordinates": [ -75.172281937463637, 40.004096368817805 ] } },
{ "type": "Feature", "properties": { "OBJECTID": 4, "NEIGHBORHOOD": "South", "NAME": "29th & Wharton*", "ADDRESS": "29th and Wharton St", "ADDRESS_NOTES": null, "ZIP": 19146, "DAY": "Tues", "TIME": "2-6pm", "MONTHS": "June – November", "ACCEPT_SNAP_ACCESS": "Y", "ACCEPT_FMNP": "Y", "ACCEPT_PHILLY_FOOD_BUCKS": "Y", "MAJOR_BUS_SUBWAY_ROUTES": "12, 64" }, "geometry": { "type": "Point", "coordinates": [ -75.192037104266404, 39.93728902207301 ] } },
{ "type": "Feature", "properties": { "OBJECTID": 5, "NEIGHBORHOOD": "North", "NAME": "33rd & Diamond*", "ADDRESS": "33rd & Diamond Sts", "ADDRESS_NOTES": "In front of Mander Playground", "ZIP": 19121, "DAY": "Thurs", "TIME": "2-6pm", "MONTHS": "June -November", "ACCEPT_SNAP_ACCESS": "Y", "ACCEPT_FMNP": "Y", "ACCEPT_PHILLY_FOOD_BUCKS": "Y", "MAJOR_BUS_SUBWAY_ROUTES": "7, 32, 39, 54, 61" }, "geometry": { "type": "Point", "coordinates": [ -75.1870621548955, 39.988674507687733 ] } },
{ "type": "Feature", "properties": { "OBJECTID": 6, "NEIGHBORHOOD": "North", "NAME": "4th and Lehigh*", "ADDRESS": "4th St & Lehigh Ave", "ADDRESS_NOTES": null, "ZIP": 19133, "DAY": "Tues", "TIME": "1-5pm", "MONTHS": "July 7th - November", "ACCEPT_SNAP_ACCESS": "Y", "ACCEPT_FMNP": "Y", "ACCEPT_PHILLY_FOOD_BUCKS": "Y", "MAJOR_BUS_SUBWAY_ROUTES": "47, 54" }, "geometry": { "type": "Point", "coordinates": [ -75.138353941117728, 39.991860932412067 ] } },
{ "type": "Feature", "properties": { "OBJECTID": 7, "NEIGHBORHOOD": "West ", "NAME": "52nd & Haverford*", "ADDRESS": "52nd St and Haverford Ave", "ADDRESS_NOTES": null, "ZIP": 19139, "DAY": "Wed", "TIME": "1-5pm", "MONTHS": "Early July – November", "ACCEPT_SNAP_ACCESS": "Y", "ACCEPT_FMNP": "Y", "ACCEPT_PHILLY_FOOD_BUCKS": "Y", "MAJOR_BUS_SUBWAY_ROUTES": "30, 52" }, "geometry": { "type": "Point", "coordinates": [ -75.22459303503652, 39.964905103844188 ] } },
{ "type": "Feature", "properties": { "OBJECTID": 8, "NEIGHBORHOOD": "Southwest", "NAME": "58th & Chester*", "ADDRESS": "58th and Chester Street", "ADDRESS_NOTES": null, "ZIP": 19143, "DAY": "Wed", "TIME": "2-6pm", "MONTHS": "June -November", "ACCEPT_SNAP_ACCESS": "Y", "ACCEPT_FMNP": "Y", "ACCEPT_PHILLY_FOOD_BUCKS": "Y", "MAJOR_BUS_SUBWAY_ROUTES": "13 trolley, G" }, "geometry": { "type": "Point", "coordinates": [ -75.228536063572321, 39.935741818147427 ] } },
{ "type": "Feature", "properties": { "OBJECTID": 9, "NEIGHBORHOOD": "Lower North", "NAME": "8th & Poplar", "ADDRESS": "8th & Poplar Sts, 19123", "ADDRESS_NOTES": null, "ZIP": 19123, "DAY": "Wed", "TIME": "3-6pm", "MONTHS": "May  – November", "ACCEPT_SNAP_ACCESS": "Y", "ACCEPT_FMNP": "Y", "ACCEPT_PHILLY_FOOD_BUCKS": null, "MAJOR_BUS_SUBWAY_ROUTES": "47" }, "geometry": { "type": "Point", "coordinates": [ -75.150517409183294, 39.967980445910868 ] } },
{ "type": "Feature", "properties": { "OBJECTID": 10, "NEIGHBORHOOD": "Southwest", "NAME": "Bartram’s Farm Market", "ADDRESS": "54th & Lindbergh Blvd", "ADDRESS_NOTES": "In front of Bartrams Village Apartments", "ZIP": 19143, "DAY": "Thurs", "TIME": "3:30-7pm", "MONTHS": "June-November", "ACCEPT_SNAP_ACCESS": "Y ", "ACCEPT_FMNP": "Y", "ACCEPT_PHILLY_FOOD_BUCKS": null, "MAJOR_BUS_SUBWAY_ROUTES": "36 trolley" }, "geometry": { "type": "Point", "coordinates": [ -75.216076326199072, 39.932751623277241 ] } },
{ "type": "Feature", "properties": { "OBJECTID": 11, "NEIGHBORHOOD": "South", "NAME": "Broad and Snyder*", "ADDRESS": "Broad and Snyder St", "ADDRESS_NOTES": null, "ZIP": 19148, "DAY": "Tues", "TIME": "2-6pm", "MONTHS": "June  – November", "ACCEPT_SNAP_ACCESS": "Y", "ACCEPT_FMNP": "Y", "ACCEPT_PHILLY_FOOD_BUCKS": "Y", "MAJOR_BUS_SUBWAY_ROUTES": "BSS" }, "geometry": { "type": "Point", "coordinates": [ -75.169747403197334, 39.924418505467926 ] } },
{ "type": "Feature", "properties": { "OBJECTID": 12, "NEIGHBORHOOD": "Center City", "NAME": "Broad and South*", "ADDRESS": "Broad and South St", "ADDRESS_NOTES": null, "ZIP": 19147, "DAY": "Wed", "TIME": "2-6pm", "MONTHS": "June- November", "ACCEPT_SNAP_ACCESS": "Y", "ACCEPT_FMNP": "Y", "ACCEPT_PHILLY_FOOD_BUCKS": "Y", "MAJOR_BUS_SUBWAY_ROUTES": "2, 4, 27, 32, 40, BSS (Lombard-South Station)" }, "geometry": { "type": "Point", "coordinates": [ -75.165423367250355, 39.943655023829841 ] } },
{ "type": "Feature", "properties": { "OBJECTID": 13, "NEIGHBORHOOD": "North", "NAME": "Cecil B. Moore*", "ADDRESS": "Cecil B. Moore Ave", "ADDRESS_NOTES": "Btw Broad & 13th Sts.", "ZIP": 19122, "DAY": "Thurs", "TIME": "2-6pm", "MONTHS": "May – Thanksgiving", "ACCEPT_SNAP_ACCESS": "Y", "ACCEPT_FMNP": "Y", "ACCEPT_PHILLY_FOOD_BUCKS": "Y", "MAJOR_BUS_SUBWAY_ROUTES": "4, 16, BSS" }, "geometry": { "type": "Point", "coordinates": [ -75.156732767722815, 39.978498551101588 ] } },
{ "type": "Feature", "properties": { "OBJECTID": 14, "NEIGHBORHOOD": "Germantown\/ Chestnut Hill", "NAME": "Chestnut Hill Farmers’ Market**", "ADDRESS": "Winston Rd. ", "ADDRESS_NOTES": "Btw Germantown Ave. & Mermaid Lane", "ZIP": 19118, "DAY": "Sat", "TIME": "9:30am – 1:30pm", "MONTHS": "Open year round (Dec-April 10am-12pm)", "ACCEPT_SNAP_ACCESS": null, "ACCEPT_FMNP": "Y", "ACCEPT_PHILLY_FOOD_BUCKS": null, "MAJOR_BUS_SUBWAY_ROUTES": "23, 77, L, Chestnut Hill Line, Chestnut Hill West Line" }, "geometry": { "type": "Point", "coordinates": [ -75.196915420855518, 40.067680457561657 ] } },
{ "type": "Feature", "properties": { "OBJECTID": 15, "NEIGHBORHOOD": "West", "NAME": "Chestnut Square**", "ADDRESS": "32nd and Chestnut Sts", "ADDRESS_NOTES": "In front of Drexels James Creese Student Center", "ZIP": null, "DAY": "Tues", "TIME": "3-7pm", "MONTHS": "May - Oct", "ACCEPT_SNAP_ACCESS": "Y", "ACCEPT_FMNP": "Y", "ACCEPT_PHILLY_FOOD_BUCKS": null, "MAJOR_BUS_SUBWAY_ROUTES": "21, 42" }, "geometry": { "type": "Point", "coordinates": [ -75.187389575631059, 39.953796193620448 ] } },
{ "type": "Feature", "properties": { "OBJECTID": 16, "NEIGHBORHOOD": "Germantown\/ Chestnut Hill ", "NAME": "Chew and E. Pleasant*", "ADDRESS": "Chew Ave. and E. Pleasant Ave.", "ADDRESS_NOTES": null, "ZIP": 19119, "DAY": "Wed", "TIME": "2-6pm", "MONTHS": "July 15th - November", "ACCEPT_SNAP_ACCESS": "Y", "ACCEPT_FMNP": "Y", "ACCEPT_PHILLY_FOOD_BUCKS": "Y", "MAJOR_BUS_SUBWAY_ROUTES": "18, 23" }, "geometry": { "type": "Point", "coordinates": [ -75.183424566168867, 40.056910380391649 ] } },
{ "type": "Feature", "properties": { "OBJECTID": 17, "NEIGHBORHOOD": "West ", "NAME": "Clark Park*", "ADDRESS": "43rd St. and Baltimore Ave.", "ADDRESS_NOTES": null, "ZIP": 19104, "DAY": "Thurs & Sat", "TIME": "Thurs 3-7pm, Sat 10am-2pm", "MONTHS": "Thurs open June – Thanksgiving, Sat open year round", "ACCEPT_SNAP_ACCESS": "Y", "ACCEPT_FMNP": "Y", "ACCEPT_PHILLY_FOOD_BUCKS": "Y", "MAJOR_BUS_SUBWAY_ROUTES": "13, 30, 34" }, "geometry": { "type": "Point", "coordinates": [ -75.209261945885942, 39.949550818283711 ] } },
{ "type": "Feature", "properties": { "OBJECTID": 18, "NEIGHBORHOOD": "Center City", "NAME": "Common Ground*", "ADDRESS": "Broad and Mt. Vernon St", "ADDRESS_NOTES": "At Congregation Rodeph Shalom", "ZIP": 19130, "DAY": "Sun", "TIME": "12-4pm", "MONTHS": "June-Nov ", "ACCEPT_SNAP_ACCESS": "Y", "ACCEPT_FMNP": "Y", "ACCEPT_PHILLY_FOOD_BUCKS": "Y", "MAJOR_BUS_SUBWAY_ROUTES": "BSS (Spring Garden stop), 16" }, "geometry": { "type": "Point", "coordinates": [ -75.160960683029913, 39.964478759036268 ] } },
{ "type": "Feature", "properties": { "OBJECTID": 19, "NEIGHBORHOOD": "South", "NAME": "Dickinson Square**", "ADDRESS": "East Moyamensing Ave. and Morris St", "ADDRESS_NOTES": null, "ZIP": 19148, "DAY": "Sun", "TIME": "10am-2pm", "MONTHS": "June - November", "ACCEPT_SNAP_ACCESS": "Y", "ACCEPT_FMNP": "Y", "ACCEPT_PHILLY_FOOD_BUCKS": "Y", "MAJOR_BUS_SUBWAY_ROUTES": "2,29,47,57" }, "geometry": { "type": "Point", "coordinates": [ -75.151162366340657, 39.926971309903145 ] } },
{ "type": "Feature", "properties": { "OBJECTID": 20, "NEIGHBORHOOD": "Southwest", "NAME": "Earths Keepers", "ADDRESS": "5100 Kingsessing Ave", "ADDRESS_NOTES": null, "ZIP": 19143, "DAY": "Mon-Thurs", "TIME": "4-6pm until end of June, starting July 9am-2pm", "MONTHS": "June -  September", "ACCEPT_SNAP_ACCESS": "Y", "ACCEPT_FMNP": "Y", "ACCEPT_PHILLY_FOOD_BUCKS": null, "MAJOR_BUS_SUBWAY_ROUTES": "13 trolley, 64" }, "geometry": { "type": "Point", "coordinates": [ -75.217745111606163, 39.94131040812244 ] } },
{ "type": "Feature", "properties": { "OBJECTID": 21, "NEIGHBORHOOD": "Germantown\/ Chestnut Hill", "NAME": "East Falls**", "ADDRESS": "Under Rt 1 overpass", "ADDRESS_NOTES": "Between Kelly Dr & Ridge Ave", "ZIP": 19129, "DAY": "Sat", "TIME": "10am-2pm", "MONTHS": "May - end of Oct", "ACCEPT_SNAP_ACCESS": "Y", "ACCEPT_FMNP": "Y", "ACCEPT_PHILLY_FOOD_BUCKS": null, "MAJOR_BUS_SUBWAY_ROUTES": "61" }, "geometry": { "type": "Point", "coordinates": [ -75.192066085759208, 40.007765362262646 ] } },
{ "type": "Feature", "properties": { "OBJECTID": 22, "NEIGHBORHOOD": "Center City", "NAME": "Fair Food Farmstand", "ADDRESS": "12th and Arch St", "ADDRESS_NOTES": "Reading Terminal Market", "ZIP": 19107, "DAY": "Mon - Sat, Sun", "TIME": "Mon - Sat 8am - 6pm, Sun 9am - 5pm", "MONTHS": "Year round", "ACCEPT_SNAP_ACCESS": "Y", "ACCEPT_FMNP": null, "ACCEPT_PHILLY_FOOD_BUCKS": "Y", "MAJOR_BUS_SUBWAY_ROUTES": "31,33,38" }, "geometry": { "type": "Point", "coordinates": [ -75.159437402340203, 39.953962787244755 ] } },
{ "type": "Feature", "properties": { "OBJECTID": 23, "NEIGHBORHOOD": "Center City", "NAME": "Fairmount*", "ADDRESS": "22nd St. and Fairmount Ave.", "ADDRESS_NOTES": null, "ZIP": 19130, "DAY": "Thurs", "TIME": "3-7pm", "MONTHS": "June- November", "ACCEPT_SNAP_ACCESS": "Y", "ACCEPT_FMNP": "Y", "ACCEPT_PHILLY_FOOD_BUCKS": "Y", "MAJOR_BUS_SUBWAY_ROUTES": "7, 32, 33, 48, PHLASH" }, "geometry": { "type": "Point", "coordinates": [ -75.173985970742109, 39.967323226618319 ] } },
{ "type": "Feature", "properties": { "OBJECTID": 24, "NEIGHBORHOOD": "Southwest", "NAME": "Farm 51", "ADDRESS": "51st & Chester Ave", "ADDRESS_NOTES": null, "ZIP": 19143, "DAY": "Thurs", "TIME": "Thurs 4:30-7pm", "MONTHS": "May-Sept", "ACCEPT_SNAP_ACCESS": "Y", "ACCEPT_FMNP": null, "ACCEPT_PHILLY_FOOD_BUCKS": null, "MAJOR_BUS_SUBWAY_ROUTES": "13 Trolley" }, "geometry": { "type": "Point", "coordinates": [ -75.219039165971211, 39.942415322479171 ] } },
{ "type": "Feature", "properties": { "OBJECTID": 25, "NEIGHBORHOOD": "Center City", "NAME": "Fitler Square Park*", "ADDRESS": "23rd and Pine St", "ADDRESS_NOTES": null, "ZIP": 19103, "DAY": "Sat", "TIME": "9am-2pm", "MONTHS": "Open year round", "ACCEPT_SNAP_ACCESS": " ", "ACCEPT_FMNP": "Y", "ACCEPT_PHILLY_FOOD_BUCKS": null, "MAJOR_BUS_SUBWAY_ROUTES": "7, 12, 40" }, "geometry": { "type": "Point", "coordinates": [ -75.179324237480103, 39.947340554061213 ] } },
{ "type": "Feature", "properties": { "OBJECTID": 26, "NEIGHBORHOOD": "South", "NAME": "Fountain**", "ADDRESS": "East Passyunk Ave ", "ADDRESS_NOTES": "At 11th and Tasker Sts", "ZIP": 19147, "DAY": "Wed", "TIME": "3-7pm", "MONTHS": "May - end of Oct", "ACCEPT_SNAP_ACCESS": "Y", "ACCEPT_FMNP": "Y", "ACCEPT_PHILLY_FOOD_BUCKS": null, "MAJOR_BUS_SUBWAY_ROUTES": "23, 29" }, "geometry": { "type": "Point", "coordinates": [ -75.16309293829427, 39.929801871327655 ] } },
{ "type": "Feature", "properties": { "OBJECTID": 27, "NEIGHBORHOOD": "Lower North", "NAME": "Francisville", "ADDRESS": "19th St and Fairmount Ave", "ADDRESS_NOTES": null, "ZIP": 19130, "DAY": "Fri", "TIME": "3-7pm", "MONTHS": "July 3rd -October", "ACCEPT_SNAP_ACCESS": "Y", "ACCEPT_FMNP": null, "ACCEPT_PHILLY_FOOD_BUCKS": null, "MAJOR_BUS_SUBWAY_ROUTES": "2, 33, BSL" }, "geometry": { "type": "Point", "coordinates": [ -75.168571380585107, 39.967235643593561 ] } },
{ "type": "Feature", "properties": { "OBJECTID": 28, "NEIGHBORHOOD": "Northeast", "NAME": "Frankford Transportation Center *", "ADDRESS": "Frankford and Bustleton Ave", "ADDRESS_NOTES": null, "ZIP": 19124, "DAY": "Tues", "TIME": "2-6pm", "MONTHS": "June -November", "ACCEPT_SNAP_ACCESS": "Y", "ACCEPT_FMNP": "Y", "ACCEPT_PHILLY_FOOD_BUCKS": "Y", "MAJOR_BUS_SUBWAY_ROUTES": "MFL" }, "geometry": { "type": "Point", "coordinates": [ -75.07684370302232, 40.023267063715238 ] } },
{ "type": "Feature", "properties": { "OBJECTID": 29, "NEIGHBORHOOD": "Germantown\/ Chestnut Hill", "NAME": "Germantown Kitchen Garden", "ADDRESS": "215 E. Penn St", "ADDRESS_NOTES": null, "ZIP": 19144, "DAY": "Wed, Sat", "TIME": "Wed 4-7pm,Sat 9am-1pm", "MONTHS": "May 17th - September", "ACCEPT_SNAP_ACCESS": "Y", "ACCEPT_FMNP": "Y", "ACCEPT_PHILLY_FOOD_BUCKS": null, "MAJOR_BUS_SUBWAY_ROUTES": "23" }, "geometry": { "type": "Point", "coordinates": [ -75.166826672833793, 40.034725233408643 ] } },
{ "type": "Feature", "properties": { "OBJECTID": 30, "NEIGHBORHOOD": "Germantown\/ Chestnut Hill", "NAME": "Germantown*", "ADDRESS": "Germantown Ave and Walnut Lane", "ADDRESS_NOTES": "In front of historic Wyck House", "ZIP": 19144, "DAY": "Fri", "TIME": "2-6pm", "MONTHS": "June - November", "ACCEPT_SNAP_ACCESS": "Y", "ACCEPT_FMNP": "Y", "ACCEPT_PHILLY_FOOD_BUCKS": "Y", "MAJOR_BUS_SUBWAY_ROUTES": "23, XH" }, "geometry": { "type": "Point", "coordinates": [ -75.178714420288586, 40.040566509625783 ] } },
{ "type": "Feature", "properties": { "OBJECTID": 31, "NEIGHBORHOOD": "Lower North", "NAME": "Girard and 27th", "ADDRESS": "27th St. and Girard Ave", "ADDRESS_NOTES": null, "ZIP": 19130, "DAY": "Sat", "TIME": "10am-1pm", "MONTHS": "June – Thanksgiving", "ACCEPT_SNAP_ACCESS": " ", "ACCEPT_FMNP": "Y", "ACCEPT_PHILLY_FOOD_BUCKS": null, "MAJOR_BUS_SUBWAY_ROUTES": "48" }, "geometry": { "type": "Point", "coordinates": [ -75.180437642499953, 39.974178396274418 ] } },
{ "type": "Feature", "properties": { "OBJECTID": 32, "NEIGHBORHOOD": "Roxborough\/ Manayunk", "NAME": "Gorgas Park**", "ADDRESS": "Ridge Ave at Acorn St", "ADDRESS_NOTES": null, "ZIP": null, "DAY": "Fri", "TIME": "2-6pm", "MONTHS": "May - October", "ACCEPT_SNAP_ACCESS": "Y", "ACCEPT_FMNP": "Y", "ACCEPT_PHILLY_FOOD_BUCKS": null, "MAJOR_BUS_SUBWAY_ROUTES": "9" }, "geometry": { "type": "Point", "coordinates": [ -75.221295888000157, 40.037528142650721 ] } },
{ "type": "Feature", "properties": { "OBJECTID": 33, "NEIGHBORHOOD": "Bridesburg\/\nKensington\/Port Richmond", "NAME": "Greensgrow Farm Stand", "ADDRESS": "2501 E. Cumberland Ave", "ADDRESS_NOTES": null, "ZIP": 19125, "DAY": "Thurs & Sun", "TIME": "Thurs 3-7pm\nSat 10am-2pm ", "MONTHS": "May - November", "ACCEPT_SNAP_ACCESS": "Y", "ACCEPT_FMNP": "Y", "ACCEPT_PHILLY_FOOD_BUCKS": "Y", "MAJOR_BUS_SUBWAY_ROUTES": "25, 39, 43, 89" }, "geometry": { "type": "Point", "coordinates": [ -75.121527984333682, 39.97844685369347 ] } },
{ "type": "Feature", "properties": { "OBJECTID": 34, "NEIGHBORHOOD": "West", "NAME": "Greensgrow West Farmstand", "ADDRESS": "4912 Baltimore Ave.", "ADDRESS_NOTES": null, "ZIP": 19143, "DAY": "Sat", "TIME": "10am-1pm", "MONTHS": "May - September", "ACCEPT_SNAP_ACCESS": "Y", "ACCEPT_FMNP": "Y", "ACCEPT_PHILLY_FOOD_BUCKS": null, "MAJOR_BUS_SUBWAY_ROUTES": "34 trolley, 64" }, "geometry": { "type": "Point", "coordinates": [ -75.221839241979865, 39.94805607054608 ] } },
{ "type": "Feature", "properties": { "OBJECTID": 35, "NEIGHBORHOOD": "Northwest", "NAME": "Grumblethorpe House", "ADDRESS": "5267 Germantown Ave", "ADDRESS_NOTES": null, "ZIP": 19144, "DAY": "Sat", "TIME": "9:30am-1:30pm", "MONTHS": "May - Sept", "ACCEPT_SNAP_ACCESS": "Y", "ACCEPT_FMNP": "Y", "ACCEPT_PHILLY_FOOD_BUCKS": null, "MAJOR_BUS_SUBWAY_ROUTES": "23" }, "geometry": { "type": "Point", "coordinates": [ -75.168515831722289, 40.032000189677838 ] } },
{ "type": "Feature", "properties": { "OBJECTID": 36, "NEIGHBORHOOD": "Center City", "NAME": "Headhouse*", "ADDRESS": "2nd and Lombard St", "ADDRESS_NOTES": null, "ZIP": 19147, "DAY": "Sun", "TIME": "10am-2pm", "MONTHS": "May - Thanksgiving", "ACCEPT_SNAP_ACCESS": "Y", "ACCEPT_FMNP": "Y", "ACCEPT_PHILLY_FOOD_BUCKS": "Y", "MAJOR_BUS_SUBWAY_ROUTES": "12, 40, 57" }, "geometry": { "type": "Point", "coordinates": [ -75.145451979500848, 39.942169388688448 ] } },
{ "type": "Feature", "properties": { "OBJECTID": 37, "NEIGHBORHOOD": "Northwest ", "NAME": "Henry Got Crops!", "ADDRESS": "7095 Henry Ave", "ADDRESS_NOTES": "at Saul High School", "ZIP": 19128, "DAY": "Tues, Fri", "TIME": "11am-7pm", "MONTHS": "May - Oct 30th ", "ACCEPT_SNAP_ACCESS": "Y", "ACCEPT_FMNP": "Y", "ACCEPT_PHILLY_FOOD_BUCKS": null, "MAJOR_BUS_SUBWAY_ROUTES": "27" }, "geometry": { "type": "Point", "coordinates": [ -75.219550034721834, 40.049042248172981 ] } },
{ "type": "Feature", "properties": { "OBJECTID": 38, "NEIGHBORHOOD": "West", "NAME": "Heritage Farm ", "ADDRESS": "4300 Monument Rd", "ADDRESS_NOTES": null, "ZIP": 19131, "DAY": "Thurs", "TIME": "3:30-6pm", "MONTHS": "May-October", "ACCEPT_SNAP_ACCESS": "Y", "ACCEPT_FMNP": "Y", "ACCEPT_PHILLY_FOOD_BUCKS": null, "MAJOR_BUS_SUBWAY_ROUTES": "38, 40" }, "geometry": { "type": "Point", "coordinates": [ -75.216404611329821, 39.998039042647754 ] } },
{ "type": "Feature", "properties": { "OBJECTID": 39, "NEIGHBORHOOD": "Center City", "NAME": "High Street", "ADDRESS": "3rd & Market St", "ADDRESS_NOTES": "in front of Fork Restaurant and  High Street Market", "ZIP": null, "DAY": "Sat", "TIME": "10am-2pm", "MONTHS": "May-October", "ACCEPT_SNAP_ACCESS": null, "ACCEPT_FMNP": null, "ACCEPT_PHILLY_FOOD_BUCKS": null, "MAJOR_BUS_SUBWAY_ROUTES": "MFL (2nd st stop), 17, 33, 48, 57" }, "geometry": { "type": "Point", "coordinates": [ -75.145681057914572, 39.950186945169222 ] } },
{ "type": "Feature", "properties": { "OBJECTID": 40, "NEIGHBORHOOD": "North", "NAME": "Hunting Park*", "ADDRESS": "W. Hunting Park Ave. and Old York Ave", "ADDRESS_NOTES": null, "ZIP": 19140, "DAY": "Sat", "TIME": "10am-2pm", "MONTHS": "June-Thanksgiving", "ACCEPT_SNAP_ACCESS": "Y", "ACCEPT_FMNP": "Y", "ACCEPT_PHILLY_FOOD_BUCKS": "Y", "MAJOR_BUS_SUBWAY_ROUTES": "BSS (Hunting Park stop), 4,23" }, "geometry": { "type": "Point", "coordinates": [ -75.147185759911608, 40.016618690058365 ] } },
{ "type": "Feature", "properties": { "OBJECTID": 41, "NEIGHBORHOOD": "Center City", "NAME": "Jefferson**", "ADDRESS": "10th and Chestnut St", "ADDRESS_NOTES": null, "ZIP": 19107, "DAY": "Thurs", "TIME": "11am-3:30pm", "MONTHS": "May - end of Oct", "ACCEPT_SNAP_ACCESS": "Y", "ACCEPT_FMNP": "Y", "ACCEPT_PHILLY_FOOD_BUCKS": null, "MAJOR_BUS_SUBWAY_ROUTES": "MFL (8th or 11th st stop), 47" }, "geometry": { "type": "Point", "coordinates": [ -75.157064219747113, 39.950015997989091 ] } },
{ "type": "Feature", "properties": { "OBJECTID": 42, "NEIGHBORHOOD": "West ", "NAME": "Lancaster Ave", "ADDRESS": "Lancaster Ave and Powelton St", "ADDRESS_NOTES": null, "ZIP": 19104, "DAY": "Sat", "TIME": "10am-4pm", "MONTHS": "May-end of Oct", "ACCEPT_SNAP_ACCESS": "Y", "ACCEPT_FMNP": "Y", "ACCEPT_PHILLY_FOOD_BUCKS": null, "MAJOR_BUS_SUBWAY_ROUTES": "31" }, "geometry": { "type": "Point", "coordinates": [ -75.195741045020227, 39.959674089121464 ] } },
{ "type": "Feature", "properties": { "OBJECTID": 43, "NEIGHBORHOOD": "Lower North", "NAME": "Liberty Lands Park*", "ADDRESS": "3rd St", "ADDRESS_NOTES": "Between Poplar and George St", "ZIP": 19123, "DAY": "Thurs", "TIME": "3-7pm", "MONTHS": "June- November", "ACCEPT_SNAP_ACCESS": "Y", "ACCEPT_FMNP": "Y", "ACCEPT_PHILLY_FOOD_BUCKS": "Y", "MAJOR_BUS_SUBWAY_ROUTES": "5, 57" }, "geometry": { "type": "Point", "coordinates": [ -75.142215880996332, 39.966450431338558 ] } },
{ "type": "Feature", "properties": { "OBJECTID": 44, "NEIGHBORHOOD": "Northeast", "NAME": "Mayfair", "ADDRESS": "Cottman and Frankford Ave", "ADDRESS_NOTES": null, "ZIP": 19149, "DAY": "Sun- every other starting May 3", "TIME": "10am-2pm", "MONTHS": "May - October ", "ACCEPT_SNAP_ACCESS": null, "ACCEPT_FMNP": null, "ACCEPT_PHILLY_FOOD_BUCKS": null, "MAJOR_BUS_SUBWAY_ROUTES": "66, 70" }, "geometry": { "type": "Point", "coordinates": [ -75.040755250646711, 40.036802817515486 ] } },
{ "type": "Feature", "properties": { "OBJECTID": 45, "NEIGHBORHOOD": "Northwest ", "NAME": "Mt. Airy**", "ADDRESS": "Carpenter Lane at Greene St", "ADDRESS_NOTES": null, "ZIP": 19119, "DAY": "Thurs", "TIME": "3-7pm", "MONTHS": "June - Oct", "ACCEPT_SNAP_ACCESS": null, "ACCEPT_FMNP": "Y", "ACCEPT_PHILLY_FOOD_BUCKS": null, "MAJOR_BUS_SUBWAY_ROUTES": "H" }, "geometry": { "type": "Point", "coordinates": [ -75.195915350569081, 40.046386616233299 ] } },
{ "type": "Feature", "properties": { "OBJECTID": 46, "NEIGHBORHOOD": "Center city", "NAME": "N. 3rd St Market", "ADDRESS": "Church St.", "ADDRESS_NOTES": "Between 2nd and 3rd St", "ZIP": 19106, "DAY": "Tues", "TIME": "2-7pm", "MONTHS": "May - November", "ACCEPT_SNAP_ACCESS": null, "ACCEPT_FMNP": "Y", "ACCEPT_PHILLY_FOOD_BUCKS": null, "MAJOR_BUS_SUBWAY_ROUTES": "48, 57" }, "geometry": { "type": "Point", "coordinates": [ -75.144604434740017, 39.950669566203636 ] } },
{ "type": "Feature", "properties": { "OBJECTID": 47, "NEIGHBORHOOD": "Center City", "NAME": "NEW! Dilworth Plaza**", "ADDRESS": "West side of City Hall", "ADDRESS_NOTES": null, "ZIP": 19103, "DAY": "Wed", "TIME": "11am-2pm", "MONTHS": "May-October", "ACCEPT_SNAP_ACCESS": null, "ACCEPT_FMNP": "Y", "ACCEPT_PHILLY_FOOD_BUCKS": null, "MAJOR_BUS_SUBWAY_ROUTES": "MFL (15th st stop), BSS (City Hall stop) " }, "geometry": { "type": "Point", "coordinates": [ -75.164746798086327, 39.952515266102779 ] } },
{ "type": "Feature", "properties": { "OBJECTID": 49, "NEIGHBORHOOD": "West ", "NAME": "Overbrook*", "ADDRESS": "Lancaster & City Ave", "ADDRESS_NOTES": "At the Overbrook Presbyterian Church", "ZIP": 19151, "DAY": "Sat", "TIME": "9am-1pm", "MONTHS": "May – November", "ACCEPT_SNAP_ACCESS": "Y", "ACCEPT_FMNP": "Y", "ACCEPT_PHILLY_FOOD_BUCKS": "Y", "MAJOR_BUS_SUBWAY_ROUTES": "65, 105, G, R5 Paoli-Thorndale Line" }, "geometry": { "type": "Point", "coordinates": [ -75.254002440179178, 39.98831396361912 ] } },
{ "type": "Feature", "properties": { "OBJECTID": 50, "NEIGHBORHOOD": "Lower Northeast", "NAME": "Oxford Circle*", "ADDRESS": "900 East Howell St.", "ADDRESS_NOTES": "parking lot in front of Oxford Circle Mennonite, Church", "ZIP": 19149, "DAY": "Thurs", "TIME": "2-6pm", "MONTHS": "June– November", "ACCEPT_SNAP_ACCESS": "Y", "ACCEPT_FMNP": "Y", "ACCEPT_PHILLY_FOOD_BUCKS": "Y", "MAJOR_BUS_SUBWAY_ROUTES": "19, 24, 67" }, "geometry": { "type": "Point", "coordinates": [ -75.091073959054526, 40.03819541876419 ] } },
{ "type": "Feature", "properties": { "OBJECTID": 51, "NEIGHBORHOOD": "North", "NAME": "Park and Tabor*", "ADDRESS": "N. Park Ave. and W. Tabor Rd", "ADDRESS_NOTES": "Near Einstein Medical Center", "ZIP": 19141, "DAY": "Tues", "TIME": "2-6pm", "MONTHS": "July 14th  -November", "ACCEPT_SNAP_ACCESS": "Y", "ACCEPT_FMNP": "Y", "ACCEPT_PHILLY_FOOD_BUCKS": "Y", "MAJOR_BUS_SUBWAY_ROUTES": "18, 26, BSS" }, "geometry": { "type": "Point", "coordinates": [ -75.143760427841144, 40.038055999918157 ] } },
{ "type": "Feature", "properties": { "OBJECTID": 52, "NEIGHBORHOOD": "Roxborough\/ Manayunk", "NAME": "Pretzel Park", "ADDRESS": "4300 Silverwood St", "ADDRESS_NOTES": null, "ZIP": 19127, "DAY": "Sat", "TIME": "10am-2pm", "MONTHS": "May – October", "ACCEPT_SNAP_ACCESS": null, "ACCEPT_FMNP": null, "ACCEPT_PHILLY_FOOD_BUCKS": null, "MAJOR_BUS_SUBWAY_ROUTES": "27, 61" }, "geometry": { "type": "Point", "coordinates": [ -75.220664101946298, 40.025743619286068 ] } },
{ "type": "Feature", "properties": { "OBJECTID": 53, "NEIGHBORHOOD": "Center City", "NAME": "Reading Terminal Market", "ADDRESS": "12th and Arch St", "ADDRESS_NOTES": null, "ZIP": 19107, "DAY": "Mon - Sat, Sun", "TIME": "Mon - Sat 8am - 6pm, Sun 9am - 5pm", "MONTHS": "Year round", "ACCEPT_SNAP_ACCESS": "Y", "ACCEPT_FMNP": "Y", "ACCEPT_PHILLY_FOOD_BUCKS": null, "MAJOR_BUS_SUBWAY_ROUTES": "31, 38, 48" }, "geometry": { "type": "Point", "coordinates": [ -75.159437402340203, 39.953962787244755 ] } },
{ "type": "Feature", "properties": { "OBJECTID": 54, "NEIGHBORHOOD": "Center City", "NAME": "Rittenhouse**", "ADDRESS": "18th and Walnut St", "ADDRESS_NOTES": null, "ZIP": 19103, "DAY": "Tues & Sat", "TIME": "Tues 10am-1pm, \nSat 9am-3pm", "MONTHS": "Tues- June to Nov Sat- Year round ", "ACCEPT_SNAP_ACCESS": null, "ACCEPT_FMNP": "Y", "ACCEPT_PHILLY_FOOD_BUCKS": null, "MAJOR_BUS_SUBWAY_ROUTES": "9, 17" }, "geometry": { "type": "Point", "coordinates": [ -75.170670276710297, 39.950140933235375 ] } },
{ "type": "Feature", "properties": { "OBJECTID": 55, "NEIGHBORHOOD": "Center City ", "NAME": "Schuylkill River Park*", "ADDRESS": "25th and Spruce St", "ADDRESS_NOTES": null, "ZIP": 19103, "DAY": "Wed", "TIME": "3-7pm", "MONTHS": "May 14th - end of Oct", "ACCEPT_SNAP_ACCESS": " ", "ACCEPT_FMNP": "Y", "ACCEPT_PHILLY_FOOD_BUCKS": null, "MAJOR_BUS_SUBWAY_ROUTES": "7, 12, 40" }, "geometry": { "type": "Point", "coordinates": [ -75.181135866873973, 39.949017628596529 ] } },
{ "type": "Feature", "properties": { "OBJECTID": 56, "NEIGHBORHOOD": "North", "NAME": "SHARE Nice Roots Farm", "ADDRESS": "2901 W. Hunting Park Ave", "ADDRESS_NOTES": null, "ZIP": 19129, "DAY": "Tues & Thurs", "TIME": "2-4pm", "MONTHS": "May - November", "ACCEPT_SNAP_ACCESS": "Y", "ACCEPT_FMNP": "Y", "ACCEPT_PHILLY_FOOD_BUCKS": "Y", "MAJOR_BUS_SUBWAY_ROUTES": "R" }, "geometry": { "type": "Point", "coordinates": [ -75.176714565750743, 40.006098128336511 ] } },
{ "type": "Feature", "properties": { "OBJECTID": 57, "NEIGHBORHOOD": "Center City", "NAME": "Suburban Station", "ADDRESS": "16th St and JFK Blvd.", "ADDRESS_NOTES": null, "ZIP": 19102, "DAY": "Wed", "TIME": "Noon-6:30pm", "MONTHS": "Mid-June- November", "ACCEPT_SNAP_ACCESS": null, "ACCEPT_FMNP": "Y", "ACCEPT_PHILLY_FOOD_BUCKS": null, "MAJOR_BUS_SUBWAY_ROUTES": "31, 38" }, "geometry": { "type": "Point", "coordinates": [ -75.166574093184451, 39.953793910086887 ] } },
{ "type": "Feature", "properties": { "OBJECTID": 58, "NEIGHBORHOOD": "West ", "NAME": "University Square**", "ADDRESS": "36th and Walnut Sts.", "ADDRESS_NOTES": null, "ZIP": 19104, "DAY": "Wed", "TIME": "10am-3pm", "MONTHS": "May – end of Oct", "ACCEPT_SNAP_ACCESS": "Y", "ACCEPT_FMNP": "Y", "ACCEPT_PHILLY_FOOD_BUCKS": null, "MAJOR_BUS_SUBWAY_ROUTES": "21" }, "geometry": { "type": "Point", "coordinates": [ -75.19478910656305, 39.953151325038526 ] } },
{ "type": "Feature", "properties": { "OBJECTID": 59, "NEIGHBORHOOD": "West", "NAME": "Urban Tree Harvest ", "ADDRESS": "53rd and Poplar St", "ADDRESS_NOTES": null, "ZIP": 19131, "DAY": "Sat (days and hours may vary)", "TIME": "10am-2pm", "MONTHS": "May – mid November", "ACCEPT_SNAP_ACCESS": "Y", "ACCEPT_FMNP": "Y", "ACCEPT_PHILLY_FOOD_BUCKS": null, "MAJOR_BUS_SUBWAY_ROUTES": "52" }, "geometry": { "type": "Point", "coordinates": [ -75.227056740225933, 39.970327457796834 ] } },
{ "type": "Feature", "properties": { "OBJECTID": 60, "NEIGHBORHOOD": "Olney\/Oak Lane ", "NAME": "Wadsworth ", "ADDRESS": "E. Wadsworth Ave. & Bayard St", "ADDRESS_NOTES": null, "ZIP": 19150, "DAY": "Fri", "TIME": "10am-2pm", "MONTHS": "May-end of Oct", "ACCEPT_SNAP_ACCESS": "Y", "ACCEPT_FMNP": "Y", "ACCEPT_PHILLY_FOOD_BUCKS": null, "MAJOR_BUS_SUBWAY_ROUTES": "18" }, "geometry": { "type": "Point", "coordinates": [ -75.173113964549003, 40.079971496645534 ] } },
{ "type": "Feature", "properties": { "OBJECTID": 61, "NEIGHBORHOOD": "West", "NAME": "Walnut Hill", "ADDRESS": "4601 Market St", "ADDRESS_NOTES": null, "ZIP": 19139, "DAY": "Thurs", "TIME": "4-7pm", "MONTHS": "May –October \/early November", "ACCEPT_SNAP_ACCESS": "Y", "ACCEPT_FMNP": "Y", "ACCEPT_PHILLY_FOOD_BUCKS": null, "MAJOR_BUS_SUBWAY_ROUTES": "MFL (46th st stop), 30, 31, 64" }, "geometry": { "type": "Point", "coordinates": [ -75.213041003219317, 39.95857264192361 ] } },
{ "type": "Feature", "properties": { "OBJECTID": 62, "NEIGHBORHOOD": "Germantown\/ Chestnut Hill", "NAME": "Weaver’s Way Community Programs Farm Stand", "ADDRESS": "8424 Germantown Ave", "ADDRESS_NOTES": null, "ZIP": 19118, "DAY": "Tues", "TIME": "3-6pm", "MONTHS": "May-October", "ACCEPT_SNAP_ACCESS": null, "ACCEPT_FMNP": "Y", "ACCEPT_PHILLY_FOOD_BUCKS": null, "MAJOR_BUS_SUBWAY_ROUTES": "H" }, "geometry": { "type": "Point", "coordinates": [ -75.205331897820599, 40.075329670611062 ] } },
{ "type": "Feature", "properties": { "OBJECTID": 63, "NEIGHBORHOOD": "Olney\/Oak Lane", "NAME": "West Oak Lane*", "ADDRESS": "Ogontz Ave and 71st Ave.", "ADDRESS_NOTES": null, "ZIP": 19138, "DAY": "Tues", "TIME": "2-6pm", "MONTHS": "July 8th - November", "ACCEPT_SNAP_ACCESS": "Y", "ACCEPT_FMNP": "Y", "ACCEPT_PHILLY_FOOD_BUCKS": "Y", "MAJOR_BUS_SUBWAY_ROUTES": "6, XH" }, "geometry": { "type": "Point", "coordinates": [ -75.151655293714299, 40.062349547095337 ] } }
